[
  {
    "id": 1,
    "name": "Banaue Rice Terraces",
    "imageUrl": "https://raw.githubusercontent.com/jethrew/examvillar/master/images/BANAUE.jpg",
    "lat": 16.923874, 
    "lng": 121.055696 
  },
  {
    "id": 2,
    "name": "BORACAY",
    "imageUrl": "https://raw.githubusercontent.com/jethrew/examvillar/master/images/BORACAY.jpg",
    "lat": 11.967371, 
    "lng": 121.924802 
  },
  {
    "id": 3,
    "name": "CHOCOLATE HILLS",
    "imageUrl": "https://raw.githubusercontent.com/jethrew/examvillar/master/images/CHOCOLATE%20HILLS.jpg",
    "lat": 9.829006, 
    "lng": 124.141715
    
  },
  {
    "id": 4,
    "name": "CORON ISLAND",
    "imageUrl": "https://raw.githubusercontent.com/jethrew/examvillar/master/images/CORON%20ISLAND.jpg",
    "lat": 11.928211, 
    "lng": 120.239319
     
  },
  {
    "id": 5,
    "name": "CORREGIDOR",
    "imageUrl": "https://raw.githubusercontent.com/jethrew/examvillar/master/images/CORREGIDOR.jpg",
    "lat": 14.385047, 
    "lng": 120.580473 
  },
    {
    "id": 6,
    "name": "MACTAN",
    "imageUrl": "https://raw.githubusercontent.com/jethrew/examvillar/master/images/MACTAN.jpg",
    "lat": 10.299119, 
    "lng": 123.963881
   
  },
    {
    "id": 7,
    "name": "MAYON",
    "imageUrl": "https://raw.githubusercontent.com/jethrew/examvillar/master/images/MAYON.jpg",
    "lat": 13.254791, 
    "lng": 123.686332
     
  },
   {
    "id": 8,
    "name": "MY HOME",
    "imageUrl": "https://raw.githubusercontent.com/jethrew/examvillar/master/images/MY%20HOME.png",
    "lat": 16.669727, 
    "lng": 120.371193
    
  },
    {
    "id": 9,
    "name": "PANGLAO",
    "imageUrl": "https://raw.githubusercontent.com/jethrew/examvillar/master/images/PANGLAO%20ISLAND.jpg",
    "lat": 9.572017, 
    "lng": 123.762919
     
  },
    {
    "id": 10,
    "name": "Puerto Princesa Subterranean River National Park",
    "imageUrl": "https://raw.githubusercontent.com/jethrew/examvillar/master/images/Puerto%20Princesa%20Subterranean%20River%20National%20Park.jpg",
    "lat": 10.192503,
    "lng": 118.926626
     
  },
    {
    "id": 11,
    "name": "LUNETA PARK",
    "imageUrl": "https://raw.githubusercontent.com/jethrew/examvillar/master/images/RIZAL%20PARK.jpg",
    "lat": 14.582436, 
    "lng": 120.978132
     
  },
    {
    "id": 12,
    "name": "TAAL",
    "imageUrl": "https://raw.githubusercontent.com/jethrew/examvillar/master/images/TAAL%20VOLCANO.jpg",
    "lat": 14.010711, 
    "lng": 120.996017 
  }
 
]
